[
  {
    "name": "Peet's Coffee",
    "year": 1966,
    "region": "usa",
    "location": "Berkeley, CA",
    "icon": "â˜•"
  },
  {
    "name": "Starbucks",
    "year": 1971,
    "region": "usa",
    "location": "Seattle, WA",
    "icon": "â­"
  },
  {
    "name": "Coffee Connection",
    "year": 1975,
    "region": "usa",
    "location": "Boston, MA",
    "icon": "ğŸ”—"
  },
  {
    "name": "Allegro Coffee",
    "year": 1977,
    "region": "usa",
    "location": "Boulder, CO",
    "icon": "ğŸ”ï¸"
  },
  {
    "name": "Monmouth Coffee",
    "year": 1978,
    "region": "europe",
    "location": "London, UK",
    "icon": "ğŸ‡¬ğŸ‡§"
  },
  {
    "name": "Peerless Coffee",
    "year": 1924,
    "region": "usa",
    "location": "Oakland, CA",
    "icon": "ğŸ†"
  },
  {
    "name": "Equator Coffees",
    "year": 1995,
    "region": "usa",
    "location": "San Rafael, CA",
    "icon": "ğŸŒ"
  },
  {
    "name": "Counter Culture",
    "year": 1995,
    "region": "usa",
    "location": "Durham, NC",
    "icon": "ğŸ”„"
  },
  {
    "name": "Intelligentsia",
    "year": 1995,
    "region": "usa",
    "location": "Chicago, IL",
    "icon": "ğŸ’¡"
  },
  {
    "name": "Stumptown",
    "year": 1999,
    "region": "usa",
    "location": "Portland, OR",
    "icon": "ğŸŒ²"
  },
  {
    "name": "Square Mile",
    "year": 1999,
    "region": "europe",
    "location": "London, UK",
    "icon": "ğŸ“"
  },
  {
    "name": "Tim Wendelboe",
    "year": 1999,
    "region": "nordic",
    "location": "Oslo, Norway",
    "icon": "ğŸ‡³ğŸ‡´"
  },
  {
    "name": "CafÃ© Imports",
    "year": 1997,
    "region": "usa",
    "location": "Minneapolis, MN",
    "icon": "ğŸ“¦"
  },
  {
    "name": "Blue Bottle",
    "year": 2002,
    "region": "usa",
    "location": "Oakland, CA",
    "icon": "ğŸ«"
  },
  {
    "name": "Single O",
    "year": 2003,
    "region": "asia",
    "location": "Sydney, AU",
    "icon": "ğŸ‡¦ğŸ‡º"
  },
  {
    "name": "Ritual Coffee",
    "year": 2005,
    "region": "usa",
    "location": "San Francisco, CA",
    "icon": "âœ¨"
  },
  {
    "name": "Koppi",
    "year": 2007,
    "region": "nordic",
    "location": "Helsingborg, SE",
    "icon": "ğŸ‡¸ğŸ‡ª"
  },
  {
    "name": "Verve Coffee",
    "year": 2007,
    "region": "usa",
    "location": "Santa Cruz, CA",
    "icon": "ğŸŒŠ"
  },
  {
    "name": "Heart Coffee",
    "year": 2009,
    "region": "usa",
    "location": "Portland, OR",
    "icon": "â¤ï¸"
  },
  {
    "name": "Drop Coffee",
    "year": 2009,
    "region": "nordic",
    "location": "Stockholm, SE",
    "icon": "ğŸ’§"
  },
  {
    "name": "Proud Mary",
    "year": 2009,
    "region": "asia",
    "location": "Melbourne, AU",
    "icon": "ğŸ¦˜"
  },
  {
    "name": "Market Lane",
    "year": 2009,
    "region": "asia",
    "location": "Melbourne, AU",
    "icon": "ğŸ›’"
  },
  {
    "name": "The Barn",
    "year": 2010,
    "region": "europe",
    "location": "Berlin, DE",
    "icon": "ğŸ "
  },
  {
    "name": "Five Elephant",
    "year": 2010,
    "region": "europe",
    "location": "Berlin, DE",
    "icon": "ğŸ˜"
  },
  {
    "name": "Workshop Coffee",
    "year": 2011,
    "region": "europe",
    "location": "London, UK",
    "icon": "ğŸ”§"
  },
  {
    "name": "La Cabra",
    "year": 2012,
    "region": "nordic",
    "location": "Aarhus, DK",
    "icon": "ğŸ"
  },
  {
    "name": "Fuglen",
    "year": 2012,
    "region": "nordic",
    "location": "Oslo/Tokyo",
    "icon": "ğŸ¦…"
  },
  {
    "name": "Onyx Coffee Lab",
    "year": 2012,
    "region": "usa",
    "location": "Rogers, AR",
    "icon": "â¬›"
  },
  {
    "name": "% Arabica",
    "year": 2014,
    "region": "asia",
    "location": "Kyoto, JP",
    "icon": "ğŸ‡¯ğŸ‡µ"
  },
  {
    "name": "Nomad Coffee",
    "year": 2014,
    "region": "europe",
    "location": "Barcelona, ES",
    "icon": "ğŸœï¸"
  },
  {
    "name": "Passenger Coffee",
    "year": 2014,
    "region": "usa",
    "location": "Lancaster, PA",
    "icon": "ğŸš‚"
  },
  {
    "name": "Brandywine Coffee",
    "year": 2015,
    "region": "usa",
    "location": "Wilmington, DE",
    "icon": "ğŸŒ¿"
  },
  {
    "name": "April Coffee",
    "year": 2016,
    "region": "nordic",
    "location": "Copenhagen, DK",
    "icon": "ğŸŒ¸"
  },
  {
    "name": "Gardelli",
    "year": 2016,
    "region": "europe",
    "location": "ForlÃ¬, IT",
    "icon": "ğŸ†"
  },
  {
    "name": "Little Wolf",
    "year": 2016,
    "region": "usa",
    "location": "Ipswich, MA",
    "icon": "ğŸº"
  },
  {
    "name": "Sey Coffee",
    "year": 2017,
    "region": "usa",
    "location": "Brooklyn, NY",
    "icon": "ğŸ—½"
  },
  {
    "name": "MaÃ±ana",
    "year": 2018,
    "region": "usa",
    "location": "Brooklyn, NY",
    "icon": "ğŸŒ…"
  },
  {
    "name": "Manhattan Coffee",
    "year": 2018,
    "region": "europe",
    "location": "Rotterdam, NL",
    "icon": "ğŸ™ï¸"
  },
  {
    "name": "Commonplace Coffee",
    "year": 2018,
    "region": "usa",
    "location": "Pittsburgh, PA",
    "icon": "ğŸ­"
  },
  {
    "name": "Dak Coffee",
    "year": 2020,
    "region": "europe",
    "location": "Amsterdam, NL",
    "icon": "ğŸ¦†"
  },
  {
    "name": "Detour Coffee",
    "year": 2009,
    "region": "usa",
    "location": "Burlington, ON",
    "icon": "ğŸ”€"
  },
  {
    "name": "Coffee Bros",
    "year": 2019,
    "region": "usa",
    "location": "Queens, NY",
    "icon": "ğŸ‘¬"
  },
  {
    "name": "Black & White",
    "year": 2015,
    "region": "usa",
    "location": "Wake Forest, NC",
    "icon": "â—"
  },
  {
    "name": "Methodical Coffee",
    "year": 2015,
    "region": "usa",
    "location": "Greenville, SC",
    "icon": "ğŸ“Š"
  }
]